City_ID,City,Country,Max Temp,Current Description,Lat,Lng,Hotel Name
1,The Valley,AI,83.1,overcast clouds,18.217,-63.0578,CeBlue Villas & Beach Resort
2,Banda Aceh,ID,80.4,overcast clouds,5.5577,95.3222,OYO 884 Rumoh PMI Hotel
6,Datong,CN,69.37,overcast clouds,40.0936,113.2914,Holiday Inn Datong City Centre
8,Rikitea,PF,73.94,overcast clouds,-23.1203,-134.9692,People ThankYou
10,Caravelas,BR,70.43,clear sky,-17.7125,-39.2481,Pousada dos Navegantes
11,Itarema,BR,77.9,overcast clouds,-2.9248,-39.9167,"Sea Lounge! Bar, Club & Restaurant"
12,Bandarbeyla,SO,78.82,overcast clouds,9.4942,50.8122,JABIR HOTEL
14,San-Pedro,CI,74.39,overcast clouds,4.7485,-6.6363,Hotel Maria
15,Iquitos,PE,75.24,broken clouds,-3.7481,-73.2472,Cortez Malaga Techy Caroly
16,Provost,CA,73.85,clear sky,52.3501,-110.2683,Canalta Hotel Provost
18,Puerto Ayora,EC,69.55,overcast clouds,-0.7393,-90.3518,Finch Bay Galapagos Hotel
20,Albany,US,72.39,few clouds,42.6001,-73.9662,
21,Mitu,CO,72.05,overcast clouds,1.1983,-70.1733,
27,Pitsunda,GE,71.78,clear sky,43.1592,40.3378,Hotel FREEDOM
29,Kapaa,US,84.18,light rain,22.0752,-159.319,Sheraton Kauai Coconut Beach Resort Hotel
30,Arraial Do Cabo,BR,70.11,light rain,-22.9661,-42.0278,Pousada Porto Praia
31,Alyangula,AU,78.57,clear sky,-13.8483,136.4192,Groote Eylandt Lodge
35,Basna,IN,74.64,overcast clouds,21.2833,82.8167,Hotel Grand Alfa [BASNA]
39,Basco,PH,84.63,broken clouds,20.4487,121.9702,Nathaniel's Lodge
40,Akyab,MM,78.91,light rain,20.15,92.9,ဟိုတယ် မန်မိုရီ
41,Srednekolymsk,RU,75.79,clear sky,67.45,153.6833,
42,Vaini,TO,80.76,broken clouds,-21.2,-175.2,Keleti Beach Resort
47,Beyneu,KZ,76.82,clear sky,45.3167,55.2,NUR
48,Wattegama,LK,74.25,overcast clouds,6.7989,81.4808,
50,Kittery,US,70.75,overcast clouds,43.0881,-70.7362,Sheraton Portsmouth Harborside Hotel
53,Carballo,ES,69.22,clear sky,43.213,-8.691,Pazo do Souto
54,Port Alfred,ZA,65.93,overcast clouds,-33.5906,26.891,The Halyards Hotel
55,Hervey Bay,AU,66.02,clear sky,-25.2986,152.8535,Shelly Bay Resort
57,Yellowknife,CA,66.72,broken clouds,62.456,-114.3525,The Explorer Hotel
59,Bathsheba,BB,83.01,scattered clouds,13.2167,-59.5167,Atlantis Hotel
60,Atuona,PF,77.29,clear sky,-9.8,-139.0333,Villa Enata
62,Dongzhen,CN,77.72,heavy intensity rain,22.3797,110.9389,茂名中汇时尚酒店
63,Jamestown,US,65.79,clear sky,42.097,-79.2353,Hampton Inn & Suites Jamestown
66,Timbiqui,CO,75.47,moderate rain,2.7717,-77.6654,Hotel Sharey
67,Ariquemes,BR,70.95,overcast clouds,-9.9133,-63.0408,Hotel Sol Nascente - Ariquemes - RO
72,Bethel,US,82.76,scattered clouds,41.3712,-73.414,Courtyard by Marriott Danbury
74,Haimen,CN,84.09,light rain,23.1935,116.6142,Shantou Chaoyang Donghui Hotel
75,Bambous Virieux,MU,70.05,broken clouds,-20.3428,57.7575,Casa Tia Villa
76,Monforte De Lemos,ES,76.57,clear sky,42.5216,-7.5142,Hotel Cardenal
80,Dingle,PH,79.43,overcast clouds,10.9995,122.6711,SEGAYA PROPERTY
84,Seoul,KR,80.17,broken clouds,37.5683,126.9778,LOTTE HOTEL SEOUL
87,Ixtapa,MX,84.22,broken clouds,20.7,-105.2,hotel la terminal
88,Vao,NC,67.48,clear sky,-22.6667,167.4833,Hotel Kou-Bugny
90,Roebourne,AU,67.46,clear sky,-20.7833,117.1333,Latitude20 Roebourne Village
93,Mahibadhoo,MV,81.21,broken clouds,3.7833,72.9667,Omadhoo Inn
94,Tanete,ID,75.7,overcast clouds,-3.9443,119.7848,Wisma Tri Multi
95,Ponta Do Sol,PT,71.71,few clouds,32.6667,-17.1,Hotel do Campo
96,Kavaratti,IN,80.56,overcast clouds,10.5669,72.642,Green leaf
97,Avarua,CK,77.05,broken clouds,-21.2078,-159.775,Paradise Inn
99,Hithadhoo,MV,81.54,scattered clouds,-0.6,73.0833,Scoop Guest House
101,Hohhot,CN,71.89,clear sky,40.8106,111.6522,Sheraton Hohhot Hotel
103,Ribeira Grande,PT,73.72,few clouds,38.5167,-28.7,Quinta da Meia Eira
105,Bati,ET,66.34,light rain,11.1833,40.0167,Meqdela Hotel
107,Sao Jose Da Coroa Grande,BR,73.89,clear sky,-8.8978,-35.1478,Crôa Mares Hotel
111,Sao Filipe,CV,79.41,broken clouds,14.8961,-24.4956,Hotel Xaguate
112,Morondava,MG,66.79,clear sky,-20.2833,44.2833,La Case Bambou
113,Butaritari,KI,81.82,clear sky,3.0707,172.7902,Isles Sunset Lodge
114,Kralendijk,BQ,82.38,broken clouds,12.15,-68.2667,Divi Flamingo Beach Resort & Casino
115,Taltal,CL,67.17,clear sky,-25.4,-70.4833,Residencial Karime
119,Puerto Del Rosario,ES,71.35,broken clouds,28.5004,-13.8627,Hotel JM Puerto del Rosario
121,San Cristobal,VE,68.18,overcast clouds,7.7669,-72.225,Pirineos
123,Samarinda,ID,80.15,light rain,-0.5,117.15,ASTON Samarinda Hotel & Convention Center
126,Labuhan,ID,80.85,broken clouds,-6.8844,112.2051,DoubleFAG
128,Saint-Philippe,RE,65.79,overcast clouds,-21.3585,55.7679,Le four à pain
129,Bongandanga,CD,73.98,overcast clouds,1.5,21.05,
133,Lagoa,PT,71.6,scattered clouds,39.05,-27.9833,Casa Das Faias
134,Lorengau,PG,82.62,broken clouds,-2.0226,147.2712,Lorengau Harbourside Hotel
138,Saint-Georges,GD,82.08,broken clouds,12.0564,-61.7485,Radisson Grenada Beach Resort
139,Ananindeua,BR,80.51,scattered clouds,-1.3656,-48.3722,Casa de Retiro Preciosinas
140,Mahebourg,MU,70.09,broken clouds,-20.4081,57.7,Shandrani Beachcomber Resort & Spa
142,Muzaffarabad,PK,75.81,clear sky,34.37,73.4711,Pearl Continental Muzaffarabad
144,Marawi,PH,77.09,scattered clouds,7.9986,124.2928,Derogongan Residence
148,Bengkulu,ID,76.48,broken clouds,-3.8004,102.2655,Grage Hotel Bengkulu
149,Along,IN,75.52,light rain,28.1667,94.7667,Hotel West
150,Muroto,JP,84.06,broken clouds,33.2833,134.15,Oota Ryokan
151,Kuryk,KZ,80.02,scattered clouds,43.2,51.65,Gostinitsa Kuryk - Otel' Dlya Vsekh Kategoriy Kliyentov .
152,Fortuna,US,69.93,overcast clouds,40.5982,-124.1573,Super 8 by Wyndham Fortuna
155,Abu Samrah,SY,73.74,clear sky,35.3029,37.1841,
156,Hobyo,SO,76.8,overcast clouds,5.3505,48.5268,Halane Hotel and Restaurent
160,Touros,BR,74.8,clear sky,-5.1989,-35.4608,INN NEW HORIZON
164,Tombouctou,ML,82.83,clear sky,20.0,-3.0,
165,Bom Jesus,BR,72.28,clear sky,-9.0744,-44.3586,Hotel Brasão & Floricultura Bella Flor
166,Vostok,RU,71.4,clear sky,46.4856,135.8833,
168,Tomatlan,MX,82.35,overcast clouds,19.9333,-105.25,El Salvial
169,Souillac,MU,70.18,broken clouds,-20.5167,57.5167,Shanti Maurice Resort & Spa
170,Ribeira Brava,PT,71.71,clear sky,32.65,-17.0667,Hotel do Campo
171,Ayagoz,KZ,69.46,scattered clouds,47.9714,80.4392,Gostinitsa Nur
172,Grand-Santi,GF,76.87,overcast clouds,4.25,-54.3833,Hotel La Villa Couacou
173,Trairi,BR,77.43,scattered clouds,-3.2778,-39.2689,janelas do mar
175,Tocantins,BR,73.69,few clouds,-10.5,-48.0,
176,Axim,GH,74.19,overcast clouds,4.8699,-2.2405,Axim Beach Resort And Spa
177,Isla Mujeres,MX,77.16,few clouds,21.2311,-86.731,Hotel La Joya Isla Mujeres
179,Broome,US,70.02,clear sky,42.2506,-75.833,Chenango Valley State Park
180,Takoradi,GH,73.29,overcast clouds,4.8845,-1.7554,Raybow International Hotel
182,Yulin,CN,76.55,overcast clouds,22.6333,110.15,罗弟天海大厦
186,Ha Tinh,VN,81.1,moderate rain,18.3333,105.9,Phú Quý
187,Karratha,AU,67.68,clear sky,-20.7377,116.8463,ibis Styles Karratha
190,Perelyub,RU,70.16,clear sky,51.8667,50.3667,
191,Nukus,UZ,66.18,clear sky,42.4531,59.6103,Hotel Jipek Joli
192,Kindu,CD,70.2,broken clouds,-2.95,25.95,Résidence Okanda
194,Kloulklubed,PW,84.7,broken clouds,7.0419,134.2556,Storyboard Beach Resort
195,Litovko,RU,66.96,overcast clouds,49.2361,135.1742,
196,Mayumba,GA,68.9,few clouds,-3.432,10.6554,LIKWALE LODGE
198,Tuy Hoa,VN,79.95,overcast clouds,13.0833,109.3,CenDeluxe Hotel Tuy Hoa
199,Samarai,PG,78.94,overcast clouds,-10.6167,150.6667,Nuli Sapi
200,Dongying,CN,70.41,overcast clouds,37.4564,118.4856,Wanda Realm
203,Maragogi,BR,73.47,clear sky,-9.0122,-35.2225,Salinas do Maragogi All Inclusive Resort
204,Sola,VU,80.35,clear sky,-13.8833,167.55,Leumerus Bungalows
206,Maraba,BR,77.18,clear sky,-5.3686,-49.1178,Hotel Del Principe
207,Conde,BR,72.86,clear sky,-7.2597,-34.9075,Pousada Beija Flor
209,Marrakesh,MA,73.47,clear sky,31.6315,-8.0083,Les Jardins de La Koutoubia
211,Mantua,IT,79.84,clear sky,45.1667,10.7833,Hotel la Favorita
215,Gamba,GA,69.64,broken clouds,-2.65,10.0,
217,Aracati,BR,78.21,scattered clouds,-4.5617,-37.7697,Hostel Pousada Ibiza
223,Saint Anthony,US,78.93,clear sky,45.0205,-93.218,"Holiday Inn Express Roseville-St. Paul, an IHG Hotel"
225,Kodinar,IN,79.95,overcast clouds,20.7903,70.7031,residency of N.B vadhel
228,Cayhagan,PH,80.47,overcast clouds,9.6697,122.4256,Melrose Beach Resort
231,Novopokrovka,UA,66.87,overcast clouds,49.8425,36.5477,Пудж дом
233,Omboue,GA,72.66,overcast clouds,-1.5746,9.2618,Hotel Olako
234,Reoti,IN,82.78,broken clouds,25.85,84.3833,Banti And Sans Koila Store
235,Tual,ID,80.13,overcast clouds,-5.6667,132.75,Grand Vilia Hotel
237,Panaba,MX,78.6,overcast clouds,21.2833,-88.2667,Hotel Don Fernando
239,Biak,ID,79.29,broken clouds,-0.9131,122.8766,Penginapan Kim
240,Carbonia,IT,76.01,clear sky,39.1672,8.5222,Lu 'Hotel
242,Kamenka,RU,68.41,broken clouds,51.3223,42.7678,
244,Gigmoto,PH,82.99,overcast clouds,13.7796,124.39,Cj's Travellers Inn
246,Kutum,SD,74.32,overcast clouds,14.2,24.6667,Dibbo areaمنطقة دبو
247,Vinh Long,VN,75.18,broken clouds,10.25,105.9667,Phuong Thao Homestay
249,Sungai Udang,MY,84.07,few clouds,2.269,102.1427,SGU Hotel
251,Betanzos,ES,70.45,clear sky,43.2804,-8.2147,Hotel Garelos Betanzos
253,Norman Wells,CA,73.44,broken clouds,65.282,-126.8329,Heritage Hotel
255,Cockburn Town,TC,81.28,clear sky,21.4612,-71.1419,Osprey Beach Hotel
256,Marsh Harbour,BS,83.05,clear sky,26.5412,-77.0636,Abaco Beach Resort
257,Griffith,US,69.3,clear sky,41.5284,-87.4237,Apartment above Depot Bar
258,Natal,BR,77.22,few clouds,-5.795,-35.2094,Villa Park Hotel | Natal
262,Bubaque,GW,80.46,overcast clouds,11.2833,-15.8333,"Casa Dora, Bubaque"
263,Brookhaven,US,78.46,broken clouds,31.5791,-90.4407,Americas Best Value Inn Brookhaven
265,Hambantota,LK,78.06,overcast clouds,6.1241,81.1185,Bungalow 63
266,Avera,US,83.71,overcast clouds,33.194,-82.5271,
267,Sabang,ID,81.95,overcast clouds,5.8933,95.3214,Hotel Citra
268,Sfantu Gheorghe,RO,66.27,broken clouds,45.8667,25.7833,Hotel Park
269,Sainte-Marie,RE,66.36,few clouds,-20.8968,55.5496,Les pailles en queue de Sainte Marie
273,Sinnamary,GF,78.73,scattered clouds,5.3833,-52.95,ALETHEIA Appartement Sinnamary
274,Saint-Pierre,RE,65.88,broken clouds,-21.3393,55.4781,Alize Plage
279,Cravo Norte,CO,77.65,overcast clouds,6.3017,-70.2041,Hotel Potosí Los Mirtos
280,Tiruchchendur,IN,80.89,overcast clouds,8.4833,78.1167,"Hotel Udhayam International, Thiruchendur"
281,Itaguai,BR,72.63,light rain,-22.8522,-43.7753,It Grande Hotel Itaguai
284,Wewak,PG,83.71,scattered clouds,-3.5534,143.6268,In Wewak Boutique Hotel
285,Gazli,UZ,76.08,clear sky,40.1333,63.45,UTG Uy-joy kommunal xoʻjaligi
289,Bafoulabe,ML,78.94,overcast clouds,13.8065,-10.8321,Logement du Chargé SIS Abdoul Karim Konaté
291,Gizo,SB,84.11,overcast clouds,-8.103,156.8419,Imagination Island
296,Ndele,CF,69.69,light rain,8.4109,20.6473,
297,Sorong,ID,77.97,overcast clouds,-0.8833,131.25,Waigo Splash Hotel
298,Mango,US,79.27,clear sky,27.9797,-82.3065,Hilton Garden Inn Tampa East/Brandon
300,Swan River,CA,71.49,broken clouds,52.1058,-101.2676,Super 8 by Wyndham Swan River MB
303,Barreirinhas,BR,77.58,few clouds,-2.7469,-42.8264,Gran Lençóis Flat Residence
304,Garowe,SO,76.8,overcast clouds,8.4054,48.4845,Curubo Hotel
305,Jeremie,HT,81.81,broken clouds,18.65,-74.1167,Auberge’Inn
306,Robertsganj,IN,78.17,broken clouds,24.7,83.0667,Prem Hotel Lodge & Restaurant
309,Baherden,TM,79.63,clear sky,38.4362,57.4316,
310,Roseburg,US,83.75,clear sky,43.2165,-123.3417,"Holiday Inn Express Roseburg, an IHG Hotel"
311,Boende,CD,74.43,broken clouds,-0.2167,20.8667,
312,Amahai,ID,79.32,overcast clouds,-3.3333,128.9167,HOTEL ISABELA
313,Nabire,ID,75.83,overcast clouds,-3.3667,135.4833,Hotel Nusantara I
315,La Montanita,CO,69.84,overcast clouds,1.4766,-75.4398,Casa Materna La Montañita
316,Meulaboh,ID,77.72,overcast clouds,4.1363,96.1285,Kost Pria
322,Harper,LR,74.62,overcast clouds,4.375,-7.7169,Screensaver
323,Ternate,ID,81.77,overcast clouds,0.8,127.4,Sahid Bela Ternate Hotel
326,Shahreza,IR,78.57,scattered clouds,32.0339,51.8794,خوابگاه
328,Pingyin,CN,72.01,overcast clouds,36.2831,116.4453,Meiyuan Hotel
329,Alofi,NU,78.69,broken clouds,-19.0595,-169.9187,Taloa Heights
330,Ergani,TR,74.62,clear sky,38.2653,39.7621,Serkan Hotel
331,Lahij,YE,84.0,light rain,13.1667,44.5833,
338,Jasper,US,82.31,broken clouds,37.2001,-94.3502,Guest House Motel
339,Thinadhoo,MV,81.39,scattered clouds,0.5333,72.9333,
340,Grand Gaube,MU,70.2,scattered clouds,-20.0064,57.6608,Veranda Paul et Virginie Hotel & Spa
341,Kulhudhuffushi,MV,80.8,overcast clouds,6.6221,73.07,Haajy Guest House 1
342,Bo Phloi,TH,75.33,overcast clouds,14.3236,99.5161,แอท เมืองพลอย รีสอร์ท At MuangPloy Resort
346,Haines Junction,CA,66.15,overcast clouds,60.7522,-137.5108,Parkside Inn
347,Canto Do Buriti,BR,71.38,clear sky,-8.11,-42.9444,Novo Hotel
350,Guerrero Negro,MX,79.34,few clouds,27.9769,-114.0611,"Casa Laguna, Bed & Breakfast"
351,Kupang,ID,83.59,clear sky,-10.1667,123.5833,Hotel On The Rock by Prasanthi
353,Nouakchott,MR,80.53,clear sky,18.0858,-15.9785,HOTEL IMAN
354,Gat,IL,77.68,clear sky,31.61,34.7642,OlusHome
355,Dharchula,IN,75.34,overcast clouds,29.85,80.5333,Mahara Hotel
358,Ukiah,US,82.44,clear sky,39.1502,-123.2078,Hampton Inn Ukiah
359,Talkha,EG,71.98,clear sky,31.0539,31.3779,Almadiafah
362,Tutoia,BR,79.14,few clouds,-2.7619,-42.2744,Tutóia Pousada Vila Beach
364,Baoqing,CN,75.94,clear sky,46.3317,132.2111,Baoqing Hotel
366,Kirksville,US,73.81,clear sky,40.1948,-92.5833,Budget Host-Village Inn
367,Akdepe,TM,68.09,clear sky,42.0551,59.3788,
369,Ulaangom,MN,67.55,clear sky,49.9811,92.0667,Achit Nuur Hotel & Restaurant
370,Champerico,GT,76.15,overcast clouds,14.3,-91.9167,"Hotel y restaurante ""El Diamante"""
371,Tiznit,MA,67.42,clear sky,29.5833,-9.5,
373,Moyale,KE,66.47,overcast clouds,3.5167,39.0584,La Tahzan Guest House
374,Kisangani,CD,71.44,overcast clouds,0.5167,25.2,Grand Ramela Hotel
376,Dongsheng,CN,67.39,overcast clouds,39.8161,109.9776,Crowne Plaza Ordos
380,Berdigestyakh,RU,65.46,broken clouds,62.0989,126.6992,
381,Goderich,CA,66.9,clear sky,43.7501,-81.7165,Harmony Inn
383,Cayenne,GF,82.09,clear sky,4.9333,-52.3333,Hôtel Le Dronmi
386,Villa Bruzual,VE,75.76,light rain,9.3328,-69.1208,hotel italia
389,Brokopondo,SR,81.84,scattered clouds,4.75,-55.1667,Matu Island
392,Kirkland Lake,CA,66.49,clear sky,48.1446,-80.0377,Comfort Inn
393,Porto Velho,BR,73.45,clear sky,-8.7619,-63.9039,Ecos Hotel Conforto
396,Monterey,US,83.17,clear sky,36.2505,-121.2516,
397,La Ronge,CA,68.25,few clouds,55.1001,-105.2842,Northland Motor Hotel
403,Alice Springs,AU,65.75,overcast clouds,-23.7,133.8833,Desert Palms Alice Springs
405,Kaniama,CD,70.52,clear sky,-7.5667,24.1833,
407,Jalu,LY,80.58,clear sky,29.0331,21.5482,صاحبة الفخامة
408,Saint-Louis,SN,82.06,few clouds,16.3333,-15.0,
409,Guozhen,CN,81.95,overcast clouds,34.3659,107.359,Yucai Hotel
412,Khani,GE,74.77,light rain,41.9563,42.9566,კურორტი ზეკარი/Resort Zekari
414,Ahtopol,BG,76.03,clear sky,42.1,27.95,Agata Beach Hotel
415,Soyo,AO,68.9,few clouds,-6.1349,12.3689,Hospedaria ndozi'ame
416,Svetlaya,RU,74.32,clear sky,46.5389,138.3297,
417,Zabid,YE,82.96,overcast clouds,14.1951,43.3152,مغرب التريبه
418,Yatou,CN,69.19,overcast clouds,37.15,122.3833,GreenTree Hotel Rongcheng Bus Station
419,Funtua,NG,69.31,few clouds,11.5233,7.3081,Sani Jikan Mallam Hotel
422,Linjiang,CN,74.07,clear sky,41.8069,126.9078,格林豪泰
423,Kaffrine,SN,80.31,broken clouds,14.1059,-15.5508,Beuleup counda motel
424,Guaruja,BR,68.9,overcast clouds,-23.9931,-46.2564,Charme Hotel Guarujá
425,Komsomolskiy,UZ,77.72,broken clouds,40.4272,71.7189,Ikathouse
426,Srikakulam,IN,77.94,overcast clouds,18.3,83.9,Micro Systems
427,Tateyama,JP,83.14,broken clouds,34.9833,139.8667,Tateyama Seaside Hotel
428,Ust-Nera,RU,75.2,overcast clouds,64.5667,143.2,Hotel Ust-Nera
429,The Pas,CA,66.22,few clouds,53.8251,-101.2541,Wescana Inn
430,Bemidji,US,77.92,scattered clouds,47.4736,-94.8803,Hampton Inn & Suites Bemidji
431,Alta Floresta,BR,78.15,scattered clouds,-9.8756,-56.0861,Floresta Amazonica Hotel
433,Pacific Grove,US,76.44,clear sky,36.6177,-121.9166,Lovers Point Inn
434,Wilmington,US,82.99,clear sky,34.2257,-77.9447,"Hotel Ballast Wilmington, Tapestry Collection by Hilton"
435,Maningrida,AU,83.46,clear sky,-12.0667,134.2667,Dhukurrdji Lodge
437,Paragominas,BR,75.04,clear sky,-2.9667,-47.4833,INOVA
439,Pilot Butte,CA,74.82,few clouds,50.4668,-104.4178,Sleep Inn Regina East
441,Jabalpur,IN,75.4,overcast clouds,23.167,79.9501,Hotel Rishi Regency
442,Bara,NG,74.73,scattered clouds,10.3744,10.7288,
445,Guane,CU,79.43,overcast clouds,22.2025,-84.0875,base de Campismo LosPortales de Guane
447,Matara,LK,76.42,overcast clouds,5.9485,80.5353,Amaloh Boutique Resort
448,Burns Lake,CA,80.02,clear sky,54.2331,-125.7533,Burns Lake Bed and Breakfast
451,Port Angeles,US,75.22,clear sky,48.1181,-123.4307,Red Lion Hotel Port Angeles Harbor
452,Muisne,EC,74.75,overcast clouds,0.6,-80.0333,Quinta Samay
455,Obo,CF,67.98,light rain,5.3998,26.4869,
456,Ratnagiri,IN,79.81,overcast clouds,16.9833,73.3,Hotel Landmark
459,Namatanai,PG,84.0,light rain,-3.6667,152.4333,Seagulls Inn Namatani
461,Ingham,US,69.42,clear sky,42.6,-84.3833,Sunset Mobile Home Park
463,Cotonou,BJ,75.18,few clouds,6.3654,2.4183,Novotel Cotonou Orisha
465,Progreso,MX,77.11,clear sky,21.2833,-89.6667,Playa Linda Hotel
469,Bilibino,RU,66.52,overcast clouds,68.0546,166.4372,Gostinitsa Severyanka
470,Birobidzhan,RU,68.2,clear sky,48.8,132.95,Hotel Central (Vostok)
471,Tambun,ID,84.09,overcast clouds,-6.2641,107.0712,Metland Hotel Bekasi
472,Salalah,OM,75.29,light intensity drizzle,17.0151,54.0924,"HAMDAN PLAZA HOTEL SALALAH, an HTG Hotel"
477,Pekan,MY,80.71,overcast clouds,3.4836,103.3996,Pekan Budget Hotel
479,Ploemeur,FR,68.83,clear sky,47.7333,-3.4333,Best Western Plus Hotel Les Rives Du Ter
480,Kourou,GF,82.11,broken clouds,5.1552,-52.6478,Lodge TAKINI4 Guesthouse KOUROU FGU
481,Airai,TL,70.16,few clouds,-8.9266,125.4092,
482,Wanning,CN,79.84,light rain,18.8003,110.3967,Paradise Hotel
483,Kainantu,PG,74.82,overcast clouds,-6.2887,145.8655,Sylvester buku
487,Mamallapuram,IN,83.05,overcast clouds,12.6264,80.1722,Radisson Blu Resort Temple Bay Mamallapuram
489,Bowen,AU,68.86,scattered clouds,-20.0167,148.2333,Castle Motor Lodge Motel
491,Abu Kamal,SY,83.32,clear sky,34.4506,40.9171,البوكمال
492,Piacabucu,BR,72.28,clear sky,-10.4056,-36.4344,Piaçabuçu News
493,Karaton,ID,79.36,broken clouds,-6.3424,106.1045,Parkir Mobil Wisata CAS Water Park
495,Port-Gentil,GA,74.37,light rain,-0.7193,8.7815,Fengshui Residence
500,Methoni,GR,78.22,clear sky,36.8197,21.7049,Methoni Beach Hotel
506,Lebanon,US,77.79,scattered clouds,36.2081,-86.2911,Hampton Inn & Suites Lebanon
509,Matay,EG,82.02,clear sky,28.419,30.7792,Nag Aespen
511,Sri Aman,MY,80.65,few clouds,1.2376,111.4621,Seri Simanggang Hotel
513,Kamaishi,JP,81.32,overcast clouds,39.2667,141.8833,Hotel Route Inn Kamaishi
515,Belmonte,BR,71.44,broken clouds,-15.8631,-38.8828,Pousada Monte Carmelo O Pão
516,Vila Franca Do Campo,PT,70.21,clear sky,37.7167,-25.4333,Pestana Bahia Praia
517,Orai,IN,82.85,clear sky,25.9833,79.4667,Capital O 66652 Hotel Manokamal
518,Hay River,CA,76.98,scattered clouds,60.8156,-115.7999,Ptarmigan Inn
519,Kununurra,AU,84.18,few clouds,-15.7667,128.7333,Hotel Kununurra
520,Oum Hadjer,TD,73.2,light rain,13.2954,19.6966,
521,Faanui,PF,74.68,light rain,-16.4833,-151.75,Bora-Bora Pearl Beach Resort & Spa
522,Felanitx,ES,77.95,clear sky,39.4696,3.1483,Petit Hotel Hostatgeria Sant Salvador
530,Benjamin Constant,BR,78.93,overcast clouds,-4.3831,-70.0311,CASA AVALIADA
531,Mana,GF,79.47,few clouds,5.6592,-53.7767,LE SAMANA
532,Isiro,CD,66.56,overcast clouds,2.7739,27.616,Guest House Hewa Bora
533,Salinopolis,BR,78.62,clear sky,-0.6136,-47.3561,Salinas Park Resort Maçarico AP101
534,Praia Da Vitoria,PT,70.05,few clouds,38.7333,-27.0667,Hotel Branco I
537,Naqadeh,IR,68.74,clear sky,36.9553,45.388,ایبنه شربین اووی
540,Roma,US,68.5,overcast clouds,43.2128,-75.4557,Wingate By Wyndham Rome
542,Batticaloa,LK,78.06,overcast clouds,7.7102,81.6924,Grand Star Guest House
543,Los Llanos De Aridane,ES,72.12,broken clouds,28.6585,-17.9182,Valle Aridane
545,Jiuquan,CN,76.44,clear sky,39.7432,98.5174,Jiuquan Hotel
546,Kavieng,PG,82.4,overcast clouds,-2.5744,150.7967,Nusa Island Retreat
547,Araceli,PH,82.81,overcast clouds,10.5529,119.9913,JBryan Traveler's Inn
548,Paka,MY,76.93,light rain,4.6374,103.4368,RUMBIA RESORT VILLA Paka Terengganu
549,Saint-Jean-De-Braye,FR,70.92,clear sky,47.913,1.9771,Novotel Orléans Saint-Jean-de-Braye
550,Balabac,PH,84.2,broken clouds,7.9868,117.0645,Batalla’s Lodging House
551,Isangel,VU,70.57,overcast clouds,-19.55,169.2667,Tanna Lodge
553,Panji,ID,84.83,broken clouds,-7.7253,114.0995,Rumah eni
554,Takaungu,KE,70.29,light rain,-3.6837,39.8566,Takaungu House
555,Sennoy,RU,66.2,clear sky,52.1509,46.9631,Guesthouse Sennoi na Zelenoi
557,Bucerias,MX,84.97,broken clouds,20.75,-105.3333,Royal Decameron Complex - Puerto Vallarta
562,Djibo,BF,79.07,overcast clouds,14.1022,-1.6306,Centre Des Ressources DPENA
565,Charters Towers,AU,68.85,clear sky,-20.1,146.2667,Cattleman's Rest Motor Inn
567,Kropotkin,RU,72.68,clear sky,45.4375,40.5756,Hotel Europe Kropotkin
568,San Miguel,SV,73.92,overcast clouds,13.4833,-88.1833,Excalibur
570,Changqing,CN,71.56,moderate rain,36.5575,116.7272,Hanting Hotel Jinan Changqing West Jingshi Road
571,Syracuse,IT,73.31,clear sky,37.0881,15.2792,Hotel Posta
573,Linhares,BR,68.23,overcast clouds,-19.3911,-40.0722,Hotel Conceição
574,Semirom,IR,71.38,broken clouds,31.4167,51.5667,Motel Dena
576,Nhulunbuy,AU,83.01,scattered clouds,-12.2333,136.7667,East Arnhem Real Estate
577,Encrucijada,CU,81.16,broken clouds,22.6169,-79.8711,Hostal La Terraza
578,Maypangdan,PH,81.07,overcast clouds,11.6519,125.4503,GV Hotel Borongan
582,Westport,US,83.53,overcast clouds,41.1415,-73.3579,The Westport Inn
584,Margate,GB,65.7,few clouds,51.3813,1.3862,Premier Inn Margate hotel
586,Canutama,BR,80.19,overcast clouds,-6.5339,-64.3831,Hotel Jhennifer
587,Dali,CN,67.5,clear sky,25.7,100.1833,Dali Travelling With Hostel
588,Beira,MZ,68.09,broken clouds,-19.8436,34.8389,Beira Terrace Hotel
589,Hamilton,US,79.21,overcast clouds,39.1834,-84.5333,Six Acres Bed & Breakfast
590,Simpang,ID,79.27,few clouds,-1.2667,104.0833,
591,Mumford,GH,72.61,overcast clouds,5.2618,-0.759,Spanish Villa
593,Tura,IN,75.78,overcast clouds,25.5198,90.2201,Hotel RIKMAN Continental
594,Cloquet,US,76.59,clear sky,46.7216,-92.4594,Super 8 by Wyndham Cloquet
595,Urucara,BR,81.48,overcast clouds,-2.5364,-57.76,Pousada Maria Bonita
596,Tadine,NC,71.37,scattered clouds,-21.55,167.8833,
597,Cilegon,ID,81.1,overcast clouds,-6.0174,106.0538,Forbis Hotel
598,Terra Santa,BR,79.2,few clouds,-2.1042,-56.4869,Hotel Sarah
600,Obihiro,JP,72.81,heavy intensity rain,42.9172,143.2044,Tokachi Gardens Hotel
601,Bowling Green,US,76.93,clear sky,36.9903,-86.4436,Hilton Garden Inn Bowling Green
604,Bin Qirdan,TN,81.16,clear sky,33.1378,11.2197,Hôtel Palace
606,Cabedelo,BR,74.07,clear sky,-6.9811,-34.8339,Pousada Camboinha
612,Edeia,BR,72.77,overcast clouds,-17.3383,-49.9314,Hotel Sol Nascente
613,Altay,CN,75.54,clear sky,47.8667,88.1167,Jinqiao Hotel
614,Maridi,SS,66.09,broken clouds,4.9158,29.4742,
616,Nuevitas,CU,80.4,clear sky,21.5453,-77.2644,Hotel Caonaba
617,Challans,FR,73.6,clear sky,46.8436,-1.8749,Citotel Le Challans
619,Kota Kinabalu,MY,84.18,few clouds,5.9749,116.0724,Gaya Centre Hotel
621,Versoix,CH,70.14,clear sky,46.2833,6.1667,Genève Cottage
622,Omsukchan,RU,70.27,overcast clouds,62.5333,155.8,
623,Kyabe,TD,72.86,moderate rain,9.4515,18.9449,
625,Slave Lake,CA,73.38,clear sky,55.2834,-114.769,Super 8 by Wyndham Slave Lake AB
628,Bud,US,73.33,overcast clouds,39.447,-86.1758,Ted McQuinn Trust
629,Kalmunai,LK,77.77,overcast clouds,7.4167,81.8167,VS Villa
630,Eureka,US,71.2,scattered clouds,40.8021,-124.1637,Eureka Inn Trademark By Wyndham
631,Bluefield,US,75.31,broken clouds,37.2698,-81.2223,Economy Inn
632,Sao Geraldo Do Araguaia,BR,80.53,few clouds,-6.4006,-48.555,Hotel Por do Sol
634,Tautira,PF,73.18,overcast clouds,-17.7333,-149.15,Pension Oaoa
635,Mareeba,AU,74.48,clear sky,-17.0,145.4333,Trinity Plains Tourist Park
637,Matadi,CD,71.13,clear sky,-5.8167,13.45,Hotel Vivi Palace
639,Rock Island,US,75.18,clear sky,41.45,-90.5168,AmericInn by Wyndham Moline Airport/ Quad Cities
644,Santa Isabel Do Rio Negro,BR,75.18,broken clouds,-0.4139,-65.0192,Hotel GSA
645,Esmeraldas,BR,71.91,scattered clouds,-19.7625,-44.3139,Forasteiro Pousada
646,Mattru,SL,73.56,light rain,7.6244,-11.8332,"Mondkor Town, Bagbo Chiefdom, Bo District"
648,Nirmal,IN,73.09,overcast clouds,19.1,78.35,Hotel Mayuri
650,Ponta Delgada,PT,70.52,scattered clouds,37.7333,-25.6667,Vila Nova Hotel
652,Kashi,CN,67.21,mist,39.4547,75.9797,帕米尔青年旅舍
653,San Quintin,MX,76.08,clear sky,30.4833,-115.95,Don Eddie's / Hotel - Restaurant
655,Khandyga,RU,67.62,overcast clouds,62.6667,135.6,Apel'sin
656,Camacha,PT,67.42,few clouds,33.0833,-16.3333,Hotel Porto Santo & Spa
657,Dossor,KZ,79.74,few clouds,47.5272,52.9811,"Gostinitsa Orpk ""Nauryz"""
660,Gallup,US,77.76,broken clouds,35.5281,-108.7426,Quality Inn & Suites Gallup I-40 Exit 20
661,Port Blair,IN,82.44,broken clouds,11.6667,92.75,"Welcomhotel By ITC Hotels, Bay Island, Port Blair"
663,Bonthe,SL,75.36,light rain,7.5264,-12.505,Bonthe Holiday Village
665,Candolim,IN,77.0,overcast clouds,15.5181,73.7626,Resort Terra Paraiso
666,Ugoofaaru,MV,80.82,broken clouds,5.6667,73.0,Ungoofaaru Inn
667,Porbandar,IN,81.41,overcast clouds,21.6422,69.6093,Lords Inn Porbandar
668,Balakovo,RU,67.57,few clouds,52.0278,47.8007,Victoria Hotel
671,Vila,PT,65.7,clear sky,42.0304,-8.1588,Hotel Castrum Villae by Walk Hotels
672,Taman,RU,78.58,overcast clouds,45.2117,36.7161,Staryy Gorod G. Taman'
675,Panalingaan,PH,84.63,broken clouds,8.7842,117.4231,I Love Panalingaan View Deck
676,Gurupa,BR,75.94,broken clouds,-1.405,-51.64,Hotel Vitória
677,Evensk,RU,65.97,overcast clouds,61.95,159.2333,
678,Kirakira,SB,82.69,broken clouds,-10.4544,161.9205,SanBiz Lodge
680,Huntington,US,79.54,few clouds,38.4193,-82.4452,Ramada Limited Huntington
681,Mao,ES,72.16,clear sky,39.8885,4.2658,ARTIEM Capri
682,Zhuhai,CN,83.98,scattered clouds,22.2769,113.5678,珠海粤财假日酒店
683,Maceio,BR,71.04,clear sky,-9.6658,-35.7353,Hotel Ponta Verde Maceió
687,Sal Rei,CV,78.4,scattered clouds,16.1833,-22.9167,Marine Club Beach Resort
688,Santiago,CL,67.55,clear sky,-33.4569,-70.6483,Hotel Panamericano
690,Mangrol,IN,80.01,overcast clouds,21.1167,70.1167,Hotel The Royal Honours
694,Aksay,RU,66.42,clear sky,47.26,39.87,Chernaya Zhemchuzhina
698,Paris,FR,74.08,clear sky,48.8534,2.3488,Britannique Hotel - Paris Centre
700,Hibbing,US,76.35,clear sky,47.4272,-92.9377,Mitchell-Tappan House - Carriage House Rentals
701,Klamath Falls,US,84.87,clear sky,42.2249,-121.7817,"Holiday Inn Express & Suites Klamath Falls Central, an IHG Hotel"
702,Hoquiam,US,71.37,clear sky,46.9809,-123.8893,Econo Lodge Inn & Suites
704,La Union,PE,65.8,scattered clouds,-5.4,-80.75,Los Portales
